{
"type": "FeatureCollection",
"features": [
{ "type": "Feature", "id": 0, "properties": { "LIBID": 1.000000, "NAME": "Herbert Bowen", "ADDRESS": "3648 W. Vernor", "PHONE": "297-9381", "MANAGER": "Kenneth B. Miller" }, "geometry": { "type": "Polygon", "coordinates": [ [ [ -83.089334, 42.323316 ], [ -83.088764, 42.323544 ], [ -83.088539, 42.323228 ], [ -83.089109, 42.323001 ], [ -83.089334, 42.323316 ] ] ] } }
,
{ "type": "Feature", "id": 1, "properties": { "LIBID": 2.000000, "NAME": "James Valentine Campbell", "ADDRESS": "6625 W. Fort", "PHONE": "297-9380", "MANAGER": "" }, "geometry": { "type": "Polygon", "coordinates": [ [ [ -83.107679, 42.304681 ], [ -83.107358, 42.304817 ], [ -83.107131, 42.304502 ], [ -83.107451, 42.304367 ], [ -83.107679, 42.304681 ] ] ] } }
,
{ "type": "Feature", "id": 2, "properties": { "LIBID": 3.000000, "NAME": "Chandler Park", "ADDRESS": "12800 Harper", "PHONE": "267-6558", "MANAGER": "Janet Sheufelt" }, "geometry": { "type": "Polygon", "coordinates": [ [ [ -82.975324, 42.401376 ], [ -82.973599, 42.401875 ], [ -82.973488, 42.401702 ], [ -82.975251, 42.401243 ], [ -82.975324, 42.401376 ] ] ] } }
,
{ "type": "Feature", "id": 3, "properties": { "LIBID": 4.000000, "NAME": "Henry Chaney", "ADDRESS": "16101 Grand River", "PHONE": "935-4314", "MANAGER": "Gerald Fine" }, "geometry": { "type": "Polygon", "coordinates": [ [ [ -83.205680, 42.395195 ], [ -83.205680, 42.395197 ], [ -83.205617, 42.395439 ], [ -83.205055, 42.395215 ], [ -83.205045, 42.394969 ], [ -83.205109, 42.394967 ], [ -83.205680, 42.395195 ] ] ] } }
,
{ "type": "Feature", "id": 4, "properties": { "LIBID": 6.000000, "NAME": "Edwin F. Conely", "ADDRESS": "4600 Martin", "PHONE": "224-6461", "MANAGER": "Michael Wells" }, "geometry": { "type": "Polygon", "coordinates": [ [ [ -83.127827, 42.332124 ], [ -83.127259, 42.332357 ], [ -83.127038, 42.332058 ], [ -83.126781, 42.331712 ], [ -83.127346, 42.331478 ], [ -83.127827, 42.332124 ] ] ] } }
,
{ "type": "Feature", "id": 5, "properties": { "LIBID": 8.000000, "NAME": "Downtown Library", "ADDRESS": "121 Gratiot", "PHONE": "224-0580", "MANAGER": "Carolyn Owens" }, "geometry": { "type": "Polygon", "coordinates": [ [ [ -83.047388, 42.334285 ], [ -83.047290, 42.334327 ], [ -83.046365, 42.333945 ], [ -83.046810, 42.333542 ], [ -83.047388, 42.334285 ] ] ] } }
,
{ "type": "Feature", "id": 6, "properties": { "LIBID": 9.000000, "NAME": "Divie B. Duffield", "ADDRESS": "2507 W Grand Blvd", "PHONE": "224-6456", "MANAGER": "Ellen Simmons" }, "geometry": { "type": "Polygon", "coordinates": [ [ [ -83.093726, 42.363468 ], [ -83.093270, 42.363636 ], [ -83.092941, 42.363130 ], [ -83.093397, 42.362963 ], [ -83.093718, 42.363456 ], [ -83.093726, 42.363468 ] ] ] } }
,
{ "type": "Feature", "id": 7, "properties": { "LIBID": 10.000000, "NAME": "Thomas A. Edison", "ADDRESS": "18400 Joy Rd.", "PHONE": "935-4315", "MANAGER": "Olga Pobutsky" }, "geometry": { "type": "Polygon", "coordinates": [ [ [ -83.220795, 42.358208 ], [ -83.220203, 42.358217 ], [ -83.220196, 42.357962 ], [ -83.220788, 42.357953 ], [ -83.220788, 42.357957 ], [ -83.220795, 42.358203 ], [ -83.220795, 42.358208 ] ] ] } }
,
{ "type": "Feature", "id": 8, "properties": { "LIBID": 11.000000, "NAME": "Elmwood Park", "ADDRESS": "550 Chene", "PHONE": "877-8014", "MANAGER": "Cynthia Moreland" }, "geometry": { "type": "Polygon", "coordinates": [ [ [ -83.024520, 42.341284 ], [ -83.023559, 42.341701 ], [ -83.022189, 42.339646 ], [ -83.022194, 42.339645 ], [ -83.023152, 42.339229 ], [ -83.024520, 42.341284 ] ] ] } }
,
{ "type": "Feature", "id": 9, "properties": { "LIBID": 12.000000, "NAME": "Benjamin Franklin", "ADDRESS": "13651 E. McNichols", "PHONE": "267-6561", "MANAGER": "Walter Young" }, "geometry": { "type": "Polygon", "coordinates": [ [ [ -82.984290, 42.427277 ], [ -82.983789, 42.427287 ], [ -82.983779, 42.426977 ], [ -82.984278, 42.426965 ], [ -82.984290, 42.427277 ] ] ] } }
,
{ "type": "Feature", "id": 10, "properties": { "LIBID": 13.000000, "NAME": "John F. Gray", "ADDRESS": "7737 Kercheval", "PHONE": "267-6559", "MANAGER": "Gail Gilman" }, "geometry": { "type": "Polygon", "coordinates": [ [ [ -83.003142, 42.359714 ], [ -83.001477, 42.360344 ], [ -83.000093, 42.358437 ], [ -83.001851, 42.357776 ], [ -83.001852, 42.357779 ], [ -83.002437, 42.358656 ], [ -83.003139, 42.359711 ], [ -83.003142, 42.359714 ] ] ] } }
,
{ "type": "Feature", "id": 11, "properties": { "LIBID": 14.000000, "NAME": "Bela Hubbard", "ADDRESS": "12929 W. McNichols", "PHONE": "935-3434", "MANAGER": "Jennifer Brown" }, "geometry": { "type": "Polygon", "coordinates": [ [ [ -83.173105, 42.416511 ], [ -83.172558, 42.416515 ], [ -83.172558, 42.416509 ], [ -83.172554, 42.416244 ], [ -83.172554, 42.416240 ], [ -83.173099, 42.416237 ], [ -83.173105, 42.416511 ] ] ] } }
,
{ "type": "Feature", "id": 12, "properties": { "LIBID": 16.000000, "NAME": "Elisabeth Knapp", "ADDRESS": "13330 Conant", "PHONE": "876-0133", "MANAGER": "Fu-Mei Tsai" }, "geometry": { "type": "Polygon", "coordinates": [ [ [ -83.060821, 42.414743 ], [ -83.060112, 42.415008 ], [ -83.059070, 42.415028 ], [ -83.060622, 42.414448 ], [ -83.060821, 42.414743 ] ] ] } }
,
{ "type": "Feature", "id": 13, "properties": { "LIBID": 17.000000, "NAME": "Abraham Lincoln", "ADDRESS": "1221 E 7 Mile", "PHONE": "876-0135", "MANAGER": "Carol Ferrero" }, "geometry": { "type": "Polygon", "coordinates": [ [ [ -83.091125, 42.432967 ], [ -83.090745, 42.432979 ], [ -83.090741, 42.432704 ], [ -83.091121, 42.432692 ], [ -83.091121, 42.432693 ], [ -83.091125, 42.432966 ], [ -83.091125, 42.432967 ] ] ] } }
,
{ "type": "Feature", "id": 14, "properties": { "LIBID": 18.000000, "NAME": "Main Library", "ADDRESS": "5201 Woodward", "PHONE": "833-1000", "MANAGER": "Dr. Maurice B. Wheeler" }, "geometry": { "type": "Polygon", "coordinates": [ [ [ -83.068143, 42.358911 ], [ -83.066402, 42.359658 ], [ -83.065208, 42.357932 ], [ -83.067107, 42.357122 ], [ -83.068143, 42.358911 ] ] ] } }
,
{ "type": "Feature", "id": 15, "properties": { "LIBID": 19.000000, "NAME": "Mark Twain", "ADDRESS": "8500 Gratiot", "PHONE": "267-6555", "MANAGER": "" }, "geometry": { "type": "Polygon", "coordinates": [ [ [ -83.011497, 42.383264 ], [ -83.011035, 42.383995 ], [ -83.011010, 42.383978 ], [ -83.010658, 42.383493 ], [ -83.010670, 42.383489 ], [ -83.011017, 42.383351 ], [ -83.011079, 42.383326 ], [ -83.011035, 42.383266 ], [ -83.011047, 42.383261 ], [ -83.011381, 42.383128 ], [ -83.011393, 42.383122 ], [ -83.011497, 42.383264 ] ] ] } }
,
{ "type": "Feature", "id": 16, "properties": { "LIBID": 21.000000, "NAME": "Municipal Reference Library", "ADDRESS": "1004 Coleman A Young Municipal Cent", "PHONE": "224-3885", "MANAGER": "Richard Maciejewski" }, "geometry": { "type": "Polygon", "coordinates": [ [ [ -83.044832, 42.329471 ], [ -83.042735, 42.330383 ], [ -83.042365, 42.329910 ], [ -83.043662, 42.329345 ], [ -83.043687, 42.329334 ], [ -83.043667, 42.329309 ], [ -83.043771, 42.329266 ], [ -83.043791, 42.329292 ], [ -83.044462, 42.329001 ], [ -83.044832, 42.329471 ] ] ] } }
,
{ "type": "Feature", "id": 17, "properties": { "LIBID": 22.000000, "NAME": "Francis Parkman", "ADDRESS": "1766 Oakman Blvd", "PHONE": "876-0132", "MANAGER": "Constance Jones" }, "geometry": { "type": "Polygon", "coordinates": [ [ [ -83.127958, 42.396708 ], [ -83.126864, 42.397117 ], [ -83.126859, 42.397119 ], [ -83.126853, 42.397121 ], [ -83.126848, 42.397120 ], [ -83.126842, 42.397120 ], [ -83.126835, 42.397120 ], [ -83.126831, 42.397118 ], [ -83.126826, 42.397117 ], [ -83.126821, 42.397114 ], [ -83.126816, 42.397111 ], [ -83.126814, 42.397107 ], [ -83.126811, 42.397103 ], [ -83.126809, 42.397099 ], [ -83.126809, 42.397095 ], [ -83.126809, 42.397090 ], [ -83.126810, 42.397086 ], [ -83.126812, 42.397083 ], [ -83.126813, 42.397081 ], [ -83.126815, 42.397079 ], [ -83.127455, 42.396408 ], [ -83.127459, 42.396410 ], [ -83.127816, 42.396599 ], [ -83.127927, 42.396659 ], [ -83.127958, 42.396708 ] ] ] } }
,
{ "type": "Feature", "id": 18, "properties": { "LIBID": 23.000000, "NAME": "Redford", "ADDRESS": "21200 Grand River", "PHONE": "935-5344", "MANAGER": "Lurine Carter" }, "geometry": { "type": "Polygon", "coordinates": [ [ [ -83.249597, 42.413825 ], [ -83.249591, 42.413826 ], [ -83.248977, 42.413835 ], [ -83.248940, 42.413197 ], [ -83.249584, 42.413455 ], [ -83.249597, 42.413825 ] ] ] } }
,
{ "type": "Feature", "id": 19, "properties": { "LIBID": 24.000000, "NAME": "Sherwood Forest", "ADDRESS": "7117 W. 7 Mile", "PHONE": "935-3435", "MANAGER": "Theodora Zaryczny" }, "geometry": { "type": "Polygon", "coordinates": [ [ [ -83.144531, 42.431419 ], [ -83.143823, 42.431439 ], [ -83.143808, 42.431111 ], [ -83.144517, 42.431091 ], [ -83.144531, 42.431419 ] ] ] } }
,
{ "type": "Feature", "id": 20, "properties": { "LIBID": 25.000000, "NAME": "Laura Ingalls Wilder", "ADDRESS": "7140 E. 7 Mile", "PHONE": "876-0136", "MANAGER": "Pat Petrone" }, "geometry": { "type": "Polygon", "coordinates": [ [ [ -83.030188, 42.433765 ], [ -83.029383, 42.433779 ], [ -83.029371, 42.433477 ], [ -83.029667, 42.433476 ], [ -83.029879, 42.433495 ], [ -83.030176, 42.433491 ], [ -83.030188, 42.433765 ] ] ] } }
,
{ "type": "Feature", "id": 21, "properties": { "LIBID": 15.000000, "NAME": "Jefferson", "ADDRESS": "12350 E. Outer Drive", "PHONE": "267-6562", "MANAGER": "" }, "geometry": { "type": "Polygon", "coordinates": [ [ [ -82.937710, 42.404070 ], [ -82.937709, 42.404071 ], [ -82.937233, 42.404245 ], [ -82.937031, 42.403946 ], [ -82.937509, 42.403771 ], [ -82.937509, 42.403772 ], [ -82.937574, 42.403866 ], [ -82.937641, 42.403967 ], [ -82.937707, 42.404066 ], [ -82.937710, 42.404070 ] ] ] } }
,
{ "type": "Feature", "id": 22, "properties": { "LIBID": 26.000000, "NAME": "Richard", "ADDRESS": "9876 Grand River", "PHONE": "935-4508", "MANAGER": "" }, "geometry": { "type": "Polygon", "coordinates": [ [ [ -83.140285, 42.369632 ], [ -83.140077, 42.369637 ], [ -83.139869, 42.369555 ], [ -83.140042, 42.369317 ], [ -83.140043, 42.369314 ], [ -83.140278, 42.369403 ], [ -83.140285, 42.369632 ] ] ] } }
,
{ "type": "Feature", "id": 23, "properties": { "LIBID": 7.000000, "NAME": "Douglass", "ADDRESS": "3666 Grand River", "PHONE": "833-9714", "MANAGER": "Rita Van Brandeghen" }, "geometry": { "type": "Polygon", "coordinates": [ [ [ -83.074988, 42.343320 ], [ -83.075045, 42.343421 ], [ -83.075033, 42.343424 ], [ -83.074614, 42.343555 ], [ -83.074602, 42.343560 ], [ -83.074545, 42.343458 ], [ -83.074580, 42.343448 ], [ -83.074574, 42.343438 ], [ -83.074536, 42.343371 ], [ -83.074431, 42.343407 ], [ -83.074458, 42.343454 ], [ -83.074446, 42.343459 ], [ -83.074027, 42.343590 ], [ -83.074014, 42.343593 ], [ -83.073454, 42.342600 ], [ -83.073536, 42.342493 ], [ -83.074816, 42.343012 ], [ -83.074988, 42.343320 ] ] ] } }
,
{ "type": "Feature", "id": 24, "properties": { "LIBID": 5.000000, "NAME": "Jessie C. Chase", "ADDRESS": "17731 W 7 Mile", "PHONE": "935-5346", "MANAGER": "Darlean Bridges" }, "geometry": { "type": "Polygon", "coordinates": [ [ [ -83.217633, 42.429637 ], [ -83.218027, 42.429627 ], [ -83.218040, 42.429901 ], [ -83.217645, 42.429912 ], [ -83.217252, 42.429922 ], [ -83.217238, 42.429648 ], [ -83.217633, 42.429637 ] ] ] } }
,
{ "type": "Feature", "id": 25, "properties": { "LIBID": 20.000000, "NAME": "John Monteith", "ADDRESS": "14100 Kercheval", "PHONE": "267-6560", "MANAGER": "Joanne Johnson" }, "geometry": { "type": "MultiPolygon", "coordinates": [ [ [ [ -82.950594, 42.377608 ], [ -82.950189, 42.377760 ], [ -82.950032, 42.377522 ], [ -82.950045, 42.377517 ], [ -82.950426, 42.377373 ], [ -82.950437, 42.377368 ], [ -82.950594, 42.377608 ] ] ], [ [ [ -82.951005, 42.377440 ], [ -82.950654, 42.377573 ], [ -82.950495, 42.377330 ], [ -82.950507, 42.377325 ], [ -82.950833, 42.377202 ], [ -82.950845, 42.377197 ], [ -82.951005, 42.377440 ] ] ] ] } }

]
}
